{"8696":{"zipcode":"75017","stuart_place_id":373579,"street_number":"104","street":"Rue des Moines","name":"SRP MOINES","longitude":2.322595,"latitude":48.8922359,"delivery_provider":"Stuart","city":"PARIS"},"8695":{"zipcode":"75017","stuart_place_id":373571,"street_number":"24/26","street":"Rue de la condamine","name":"SRP CONDAMINE","longitude":2.3231134,"latitude":48.8874052,"delivery_provider":"Stuart","city":"PARIS"},"8679":{"zipcode":"75011","stuart_place_id":373578,"street_number":"105","street":"Av Parmentier","name":"STE FPX  PARMENTIER ALIMENTAIRE","longitude":2.3726968,"latitude":48.8671044,"delivery_provider":"Stuart","city":"PARIS"},"8313":{"zipcode":"75017","stuart_place_id":373580,"street_number":"12/14","street":"Rue Pouchet","name":"POUCHET","longitude":2.3193876,"latitude":48.8922099,"delivery_provider":"Stuart","city":"PARIS"},"8054":{"zipcode":"75012","stuart_place_id":373572,"street_number":"13","street":"Place d'Aligre","name":"ORTEAUX","longitude":2.3786881,"latitude":48.8490648,"delivery_provider":"Stuart","city":"PARIS"},"8047":{"zipcode":"75004","stuart_place_id":373574,"street_number":"135","street":"Rue St Antoine","name":"PARISIENNE SM","longitude":2.3597719,"latitude":48.8552792,"delivery_provider":"Stuart","city":"PARIS"},"8046":{"zipcode":"75011","stuart_place_id":373577,"street_number":"25","street":"Rue de la Roquette","name":"SUPERETTE YVELINE","longitude":2.3729289,"latitude":48.8548681,"delivery_provider":"Stuart","city":"PARIS"},"8044":{"zipcode":"75011","stuart_place_id":373573,"street_number":"65","street":"Rue Servan","name":"SDP SERVAN","longitude":2.3813998,"latitude":48.8634075,"delivery_provider":"Stuart","city":"PARIS"},"8043":{"zipcode":"75011","stuart_place_id":373575,"street_number":"47","street":"Rue Popincourt","name":"SDIF/ POPINCOURT","longitude":2.3754885,"latitude":48.8595694,"delivery_provider":"Stuart","city":"PARIS"},"6947":{"zipcode":"75008","stuart_place_id":373586,"street_number":"33","street":"rue Marbeuf","name":"FPX EMD","longitude":2.3046348,"latitude":48.8695026,"delivery_provider":"Stuart","city":"PARIS"},"6755":{"zipcode":"75002","stuart_place_id":373587,"street_number":"102/104","street":"rue Réaumur","name":"DISTRIREAUMUR REAUMUR 2","longitude":2.3478725,"latitude":48.867506,"delivery_provider":"Stuart","city":"PARIS"},"5361":{"zipcode":"75116","stuart_place_id":373582,"street_number":"35","street":"rue Lauriston","name":"LAUDIS","longitude":2.2915616,"latitude":48.870698,"delivery_provider":"Coursier Privé","city":"PARIS"},"5023":{"zipcode":"75017","stuart_place_id":373581,"street_number":"25","street":"boulevard Bessières","name":"B H D","longitude":2.3262671,"latitude":48.8972236,"delivery_provider":"Stuart","city":"PARIS"}}
